[
  {
    "name": "Phreesia",
    "office_numb": 1,
    "latitud": 40.739794,
    "longitud": -73.985878,
    "companies": 70.62,
    "design": 99.01,
    "score": 98.33,
    "starbucks": 99.94,
    "colegio": 97.7,
    "aeropuerto": 2.3,
    "bar": 84.99,
    "restaurante_vegano": 90.49,
    "estadio_de_baloncesto": 85.87,
    "peluqueria_perros": 59.0
  },
  {
    "name": "Digg",
    "office_numb": 1,
    "latitud": 37.764726,
    "longitud": -122.394523,
    "companies": 85.71,
    "design": 56.02,
    "score": 59.97,
    "starbucks": 30.62,
    "colegio": 0.0,
    "aeropuerto": 15.95,
    "bar": 34.47,
    "restaurante_vegano": 88.31,
    "estadio_de_baloncesto": 67.32,
    "peluqueria_perros": 1.0
  },
  {
    "name": "Mytopia",
    "office_numb": 1,
    "latitud": 34.007967,
    "longitud": -118.489681,
    "companies": 99.01,
    "design": 17.82,
    "score": 46.59,
    "starbucks": 30.03,
    "colegio": 0.0,
    "aeropuerto": 3.78,
    "bar": 62.22,
    "restaurante_vegano": 7.43,
    "estadio_de_baloncesto": 21.93,
    "peluqueria_perros": 3.0
  },
  {
    "name": "Hangout Industries",
    "office_numb": 1,
    "latitud": 42.352835,
    "longitud": -71.0609612,
    "companies": 92.12,
    "design": 29.54,
    "score": 82.09,
    "starbucks": 75.04,
    "colegio": 0.0,
    "aeropuerto": 12.43,
    "bar": 73.53,
    "restaurante_vegano": 56.72,
    "estadio_de_baloncesto": 86.7,
    "peluqueria_perros": 90.0
  },
  {
    "name": "Techstars",
    "office_numb": 1,
    "latitud": 40.010492,
    "longitud": -105.276843,
    "companies": 87.62,
    "design": 15.87,
    "score": 35.04,
    "starbucks": 15.21,
    "colegio": 0.0,
    "aeropuerto": 0.0,
    "bar": 59.15,
    "restaurante_vegano": 1.53,
    "estadio_de_baloncesto": 2.98,
    "peluqueria_perros": 0.0
  },
  {
    "name": "VideoSurf",
    "office_numb": 1,
    "latitud": 37.561877,
    "longitud": -122.325248,
    "companies": 70.65,
    "design": 7.57,
    "score": 36.95,
    "starbucks": 13.8,
    "colegio": 0.0,
    "aeropuerto": 11.62,
    "bar": 46.27,
    "restaurante_vegano": 98.91,
    "estadio_de_baloncesto": 34.78,
    "peluqueria_perros": 0.0
  },
  {
    "name": "eBuddy",
    "office_numb": 3,
    "latitud": 51.500152,
    "longitud": -0.126236,
    "companies": 36.44,
    "design": 86.47,
    "score": 51.31,
    "starbucks": 46.99,
    "colegio": 0.0,
    "aeropuerto": 2.16,
    "bar": 46.75,
    "restaurante_vegano": 49.07,
    "estadio_de_baloncesto": 95.8,
    "peluqueria_perros": 0.0
  },
  {
    "name": "UsingMiles",
    "office_numb": 1,
    "latitud": 39.749671,
    "longitud": -104.9998449,
    "companies": 66.47,
    "design": 8.08,
    "score": 51.93,
    "starbucks": 69.19,
    "colegio": 0.0,
    "aeropuerto": 0.14,
    "bar": 99.96,
    "restaurante_vegano": 43.72,
    "estadio_de_baloncesto": 99.7,
    "peluqueria_perros": 0.0
  },
  {
    "name": "Burt",
    "office_numb": 1,
    "latitud": 59.337864,
    "longitud": 18.036587,
    "companies": 66.18,
    "design": 6.59,
    "score": 64.57,
    "starbucks": 4.91,
    "colegio": 0.0,
    "aeropuerto": 98.65,
    "bar": 63.7,
    "restaurante_vegano": 12.24,
    "estadio_de_baloncesto": 44.5,
    "peluqueria_perros": 0.0
  },
  {
    "name": "Swype",
    "office_numb": 1,
    "latitud": 47.6495905,
    "longitud": -122.3497956,
    "companies": 66.28,
    "design": 4.18,
    "score": 31.16,
    "starbucks": 22.37,
    "colegio": 0.0,
    "aeropuerto": 0.0,
    "bar": 47.1,
    "restaurante_vegano": 14.64,
    "estadio_de_baloncesto": 26.95,
    "peluqueria_perros": 0.0
  },
  {
    "name": "OnForce",
    "office_numb": 1,
    "latitud": 42.47218,
    "longitud": -71.262508,
    "companies": 66.91,
    "design": 0.82,
    "score": 25.48,
    "starbucks": 4.84,
    "colegio": 0.0,
    "aeropuerto": 0.81,
    "bar": 4.69,
    "restaurante_vegano": 5.03,
    "estadio_de_baloncesto": 8.19,
    "peluqueria_perros": 3.0
  },
  {
    "name": "TRUECar",
    "office_numb": 4,
    "latitud": 30.3096936,
    "longitud": -97.9390133,
    "companies": 66.81,
    "design": 0.12,
    "score": 23.89,
    "starbucks": 8.2,
    "colegio": 0.0,
    "aeropuerto": 0.14,
    "bar": 0.93,
    "restaurante_vegano": 0.66,
    "estadio_de_baloncesto": 0.47,
    "peluqueria_perros": 0.0
  },
  {
    "name": "Tweegee",
    "office_numb": 1,
    "latitud": 32.037363,
    "longitud": 34.8003705,
    "companies": 66.18,
    "design": 1.07,
    "score": 24.54,
    "starbucks": 0.51,
    "colegio": 0.0,
    "aeropuerto": 2.97,
    "bar": 7.9,
    "restaurante_vegano": 3.06,
    "estadio_de_baloncesto": 6.68,
    "peluqueria_perros": 0.0
  },
  {
    "name": "Inuvo",
    "office_numb": 1,
    "latitud": 27.913011,
    "longitud": -82.702449,
    "companies": 66.18,
    "design": 0.06,
    "score": 23.12,
    "starbucks": 2.51,
    "colegio": 0.0,
    "aeropuerto": 0.41,
    "bar": 6.68,
    "restaurante_vegano": 19.23,
    "estadio_de_baloncesto": 2.28,
    "peluqueria_perros": 0.0
  },
  {
    "name": "TRUECar",
    "office_numb": 5,
    "latitud": 34.4405218,
    "longitud": -119.7445783,
    "companies": 66.18,
    "design": 0.0,
    "score": 27.62,
    "starbucks": 6.74,
    "colegio": 3.22,
    "aeropuerto": 0.0,
    "bar": 14.06,
    "restaurante_vegano": 2.62,
    "estadio_de_baloncesto": 22.7,
    "peluqueria_perros": 0.0
  },
  {
    "name": "SAVO",
    "office_numb": 1,
    "latitud": 41.87675,
    "longitud": -87.640458,
    "companies": 51.03,
    "design": 33.44,
    "score": 52.92,
    "starbucks": 87.05,
    "colegio": 0.0,
    "aeropuerto": 17.57,
    "bar": 57.33,
    "restaurante_vegano": 41.2,
    "estadio_de_baloncesto": 54.4,
    "peluqueria_perros": 4.0
  },
  {
    "name": "Strutta",
    "office_numb": 1,
    "latitud": 49.2821075,
    "longitud": -123.1078045,
    "companies": 39.84,
    "design": 30.27,
    "score": 45.84,
    "starbucks": 73.77,
    "colegio": 0.0,
    "aeropuerto": 0.0,
    "bar": 92.64,
    "restaurante_vegano": 23.72,
    "estadio_de_baloncesto": 90.04,
    "peluqueria_perros": 0.0
  },
  {
    "name": "FlightStats",
    "office_numb": 1,
    "latitud": 45.519154,
    "longitud": -122.675428,
    "companies": 33.26,
    "design": 30.27,
    "score": 43.46,
    "starbucks": 71.37,
    "colegio": 0.0,
    "aeropuerto": 1.08,
    "bar": 85.9,
    "restaurante_vegano": 2.62,
    "estadio_de_baloncesto": 89.18,
    "peluqueria_perros": 0.0
  },
  {
    "name": "23andMe",
    "office_numb": 1,
    "latitud": 37.09024,
    "longitud": -95.712891,
    "companies": 33.09,
    "design": 30.51,
    "score": 16.19,
    "starbucks": 0.01,
    "colegio": 0.0,
    "aeropuerto": 0.0,
    "bar": 0.08,
    "restaurante_vegano": 0.0,
    "estadio_de_baloncesto": 0.0,
    "peluqueria_perros": 0.0
  },
  {
    "name": "Netbiscuits",
    "office_numb": 1,
    "latitud": 49.4559965,
    "longitud": 7.8068522,
    "companies": 33.09,
    "design": 30.51,
    "score": 16.19,
    "starbucks": 0.01,
    "colegio": 0.0,
    "aeropuerto": 0.0,
    "bar": 4.41,
    "restaurante_vegano": 1.09,
    "estadio_de_baloncesto": 0.0,
    "peluqueria_perros": 0.0
  }
]