[
  {
    "name": "Phreesia",
    "office_numb": 1,
    "latitud": 40.739794,
    "longitud": -73.985878,
    "companies": 70.62,
    "design": 99.01,
    "score": 98.33,
    "starbucks": 99.94,
    "colegio": 97.7,
    "aeropuerto": 2.3,
    "bar": 84.99,
    "restaurante_vegano": 90.49,
    "estadio_de_baloncesto": 85.87,
    "peluqueria_perros": 59.0
  },
  {
    "name": "Hangout Industries",
    "office_numb": 1,
    "latitud": 42.352835,
    "longitud": -71.0609612,
    "companies": 92.12,
    "design": 29.54,
    "score": 82.09,
    "starbucks": 75.04,
    "colegio": 0.0,
    "aeropuerto": 12.43,
    "bar": 73.53,
    "restaurante_vegano": 56.72,
    "estadio_de_baloncesto": 86.7,
    "peluqueria_perros": 90.0
  },
  {
    "name": "Burt",
    "office_numb": 1,
    "latitud": 59.337864,
    "longitud": 18.036587,
    "companies": 66.18,
    "design": 6.59,
    "score": 64.57,
    "starbucks": 4.91,
    "colegio": 0.0,
    "aeropuerto": 98.65,
    "bar": 63.7,
    "restaurante_vegano": 12.24,
    "estadio_de_baloncesto": 44.5,
    "peluqueria_perros": 0.0
  },
  {
    "name": "Digg",
    "office_numb": 1,
    "latitud": 37.764726,
    "longitud": -122.394523,
    "companies": 85.71,
    "design": 56.02,
    "score": 59.97,
    "starbucks": 30.62,
    "colegio": 0.0,
    "aeropuerto": 15.95,
    "bar": 34.47,
    "restaurante_vegano": 88.31,
    "estadio_de_baloncesto": 67.32,
    "peluqueria_perros": 1.0
  },
  {
    "name": "SAVO",
    "office_numb": 1,
    "latitud": 41.87675,
    "longitud": -87.640458,
    "companies": 51.03,
    "design": 33.44,
    "score": 52.92,
    "starbucks": 87.05,
    "colegio": 0.0,
    "aeropuerto": 17.57,
    "bar": 57.33,
    "restaurante_vegano": 41.2,
    "estadio_de_baloncesto": 54.4,
    "peluqueria_perros": 4.0
  },
  {
    "name": "UsingMiles",
    "office_numb": 1,
    "latitud": 39.749671,
    "longitud": -104.9998449,
    "companies": 66.47,
    "design": 8.08,
    "score": 51.93,
    "starbucks": 69.19,
    "colegio": 0.0,
    "aeropuerto": 0.14,
    "bar": 99.96,
    "restaurante_vegano": 43.72,
    "estadio_de_baloncesto": 99.7,
    "peluqueria_perros": 0.0
  },
  {
    "name": "eBuddy",
    "office_numb": 3,
    "latitud": 51.500152,
    "longitud": -0.126236,
    "companies": 36.44,
    "design": 86.47,
    "score": 51.31,
    "starbucks": 46.99,
    "colegio": 0.0,
    "aeropuerto": 2.16,
    "bar": 46.75,
    "restaurante_vegano": 49.07,
    "estadio_de_baloncesto": 95.8,
    "peluqueria_perros": 0.0
  },
  {
    "name": "Mytopia",
    "office_numb": 1,
    "latitud": 34.007967,
    "longitud": -118.489681,
    "companies": 99.01,
    "design": 17.82,
    "score": 46.59,
    "starbucks": 30.03,
    "colegio": 0.0,
    "aeropuerto": 3.78,
    "bar": 62.22,
    "restaurante_vegano": 7.43,
    "estadio_de_baloncesto": 21.93,
    "peluqueria_perros": 3.0
  },
  {
    "name": "Strutta",
    "office_numb": 1,
    "latitud": 49.2821075,
    "longitud": -123.1078045,
    "companies": 39.84,
    "design": 30.27,
    "score": 45.84,
    "starbucks": 73.77,
    "colegio": 0.0,
    "aeropuerto": 0.0,
    "bar": 92.64,
    "restaurante_vegano": 23.72,
    "estadio_de_baloncesto": 90.04,
    "peluqueria_perros": 0.0
  },
  {
    "name": "FlightStats",
    "office_numb": 1,
    "latitud": 45.519154,
    "longitud": -122.675428,
    "companies": 33.26,
    "design": 30.27,
    "score": 43.46,
    "starbucks": 71.37,
    "colegio": 0.0,
    "aeropuerto": 1.08,
    "bar": 85.9,
    "restaurante_vegano": 2.62,
    "estadio_de_baloncesto": 89.18,
    "peluqueria_perros": 0.0
  }
]